{"SilverElite":{"name":"SilverElite","type":"Regular","products":["QGAZE","W93IA","H7IZH","BRBSF"],"status":"OPEN","location":{"addressName":"Dositejeva 4","city":"Sombor","postalCode":"25000"},"deleted":false},"BurgerPlus":{"name":"BurgerPlus","type":"Regular","products":["13E63","M31BR","8R7S2","41GZD","N3ZM9","WIRTY"],"status":"OPEN","location":{"addressName":"Kralja Petra I 26","city":"Backa Palanka","postalCode":"21400"},"deleted":false},"DrinksOnUs":{"name":"DrinksOnUs","type":"Cafe","products":["5WJ3A","UWLWG","GG9YH","UXQZW","2JPV8"],"status":"CLOSED","location":{"addressName":"Laze Teleckog 7","city":"Novi Sad","postalCode":"21000"},"deleted":false},"WutaiFood":{"name":"WutaiFood","type":"Chinese","products":["JLH78","5G86X","UB9KF"],"status":"CLOSED","location":{"addressName":"Bulevar oslobodjenja 88","city":"Novi Sad","postalCode":"21000"},"deleted":false},"Yummyyy":{"name":"Yummyyy","type":"Chinese","products":["N6QH6","AXVM9","OYANA","LM6MS","2IPY1"],"status":"OPEN","location":{"addressName":"Jevrejska 5","city":"Novi Sad","postalCode":"21000"},"deleted":false}}